[
    {
        "id": "statue-of-liberty",
        "name": "Statue of Liberty",
        "country": "US",
        "lat": 40.6892,
        "lng": -74.0445,
        "difficulty": "easy",
        "funFact": "The statue's face was modeled after the sculptor's mother, Charlotte.",
        "tags": [
            "landmark",
            "americas"
        ]
    },
    {
        "id": "sydney-opera-house",
        "name": "Sydney Opera House",
        "country": "AU",
        "lat": -33.8568,
        "lng": 151.2153,
        "difficulty": "easy",
        "funFact": "The building was designed by Danish architect Jørn Utzon, who won a design competition in 1957.",
        "tags": [
            "landmark",
            "oceania"
        ]
    },
    {
        "id": "pyramids-giza",
        "name": "Great Pyramid of Giza",
        "country": "EG",
        "lat": 29.9792,
        "lng": 31.1342,
        "difficulty": "easy",
        "funFact": "It is the oldest of the Seven Wonders of the Ancient World and the only one to remain largely intact.",
        "tags": [
            "landmark",
            "africa"
        ]
    },
    {
        "id": "taj-mahal",
        "name": "Taj Mahal",
        "country": "IN",
        "lat": 27.1751,
        "lng": 78.0421,
        "difficulty": "easy",
        "funFact": "The structure appears to change color depending on the time of day and the moon.",
        "tags": [
            "landmark",
            "asia"
        ]
    },
    {
        "id": "machu-picchu",
        "name": "Machu Picchu",
        "country": "PE",
        "lat": -13.1631,
        "lng": -72.5450,
        "difficulty": "medium",
        "funFact": "The Incas used a technique called ashlar, where stones are cut to fit together perfectly without mortar.",
        "tags": [
            "landmark",
            "americas"
        ]
    },
    {
        "id": "mount-everest",
        "name": "Mount Everest",
        "country": "NP",
        "lat": 27.9881,
        "lng": 86.9250,
        "difficulty": "medium",
        "funFact": "Everest's height actually increases by about 4 millimeters every year due to tectonic plate movement.",
        "tags": [
            "nature",
            "asia"
        ]
    },
    {
        "id": "christ-redeemer",
        "name": "Christ the Redeemer",
        "country": "BR",
        "lat": -22.9519,
        "lng": -43.2105,
        "difficulty": "easy",
        "funFact": "The statue is frequently struck by lightning, occurring about 3-6 times a year.",
        "tags": [
            "landmark",
            "americas"
        ]
    },
    {
        "id": "colosseum",
        "name": "The Colosseum",
        "country": "IT",
        "lat": 41.8902,
        "lng": 12.4922,
        "difficulty": "easy",
        "funFact": "It is the largest ancient amphitheatre ever built, and is still the largest standing amphitheatre in the world.",
        "tags": [
            "landmark",
            "europe"
        ]
    },
    {
        "id": "mount-fuji",
        "name": "Mount Fuji",
        "country": "JP",
        "lat": 35.3606,
        "lng": 138.7274,
        "difficulty": "medium",
        "funFact": "Fuji is actually three separate volcanoes piled one on top of the other.",
        "tags": [
            "nature",
            "asia"
        ]
    },
    {
        "id": "easter-island",
        "name": "Easter Island (Moai)",
        "country": "CL",
        "lat": -27.1127,
        "lng": -109.3497,
        "difficulty": "hard",
        "funFact": "The statues are known as Moai and were carved by the Rapa Nui people between 1250 and 1500.",
        "tags": [
            "landmark",
            "oceania"
        ]
    },
    {
        "id": "table-mountain",
        "name": "Table Mountain",
        "country": "ZA",
        "lat": -33.9628,
        "lng": 18.4098,
        "difficulty": "medium",
        "funFact": "It is one of the oldest mountains in the world, over six times older than the Himalayas.",
        "tags": [
            "nature",
            "africa"
        ]
    },
    {
        "id": "london-eye",
        "name": "The London Eye",
        "country": "GB",
        "lat": 51.5033,
        "lng": -0.1195,
        "difficulty": "easy",
        "funFact": "It has 32 capsules, representing the 32 boroughs of London, but they are numbered 1 to 33 (skipping 13).",
        "tags": [
            "landmark",
            "europe"
        ]
    },
    {
        "id": "kilimanjaro",
        "name": "Mount Kilimanjaro",
        "country": "TZ",
        "lat": -3.0674,
        "lng": 37.3556,
        "difficulty": "medium",
        "funFact": "It is the highest free-standing mountain in the world, meaning it is not part of a mountain range.",
        "tags": [
            "nature",
            "africa"
        ]
    },
    {
        "id": "sagrada-familia",
        "name": "Sagrada Família",
        "country": "ES",
        "lat": 41.4036,
        "lng": 2.1744,
        "difficulty": "medium",
        "funFact": "Construction began in 1882 and it is still not finished, surviving the Spanish Civil War.",
        "tags": [
            "landmark",
            "europe"
        ]
    },
    {
        "id": "grand-canyon",
        "name": "Grand Canyon",
        "country": "US",
        "lat": 36.1070,
        "lng": -112.1130,
        "difficulty": "easy",
        "funFact": "The canyon is around 6 million years old, but some of the rocks at the bottom are 2 billion years old.",
        "tags": [
            "nature",
            "americas"
        ]
    },
    {
        "id": "petra",
        "name": "Petra",
        "country": "JO",
        "lat": 30.3285,
        "lng": 35.4444,
        "difficulty": "medium",
        "funFact": "Petra is often called the 'Rose City' because of the color of the stone from which it is carved.",
        "tags": [
            "landmark",
            "asia"
        ]
    },
    {
        "id": "angkor-wat",
        "name": "Angkor Wat",
        "country": "KH",
        "lat": 13.4125,
        "lng": 103.8670,
        "difficulty": "medium",
        "funFact": "Originally built as a Hindu temple, it was gradually transformed into a Buddhist temple in the 12th century.",
        "tags": [
            "landmark",
            "asia"
        ]
    },
    {
        "id": "galapagos",
        "name": "Galápagos Islands",
        "country": "EC",
        "lat": -0.7773,
        "lng": -91.1425,
        "difficulty": "hard",
        "funFact": "Charles Darwin's visit here in 1835 inspired his theory of evolution by natural selection.",
        "tags": [
            "nature",
            "americas"
        ]
    },
    {
        "id": "burj-khalifa",
        "name": "Burj Khalifa",
        "country": "AE",
        "lat": 25.1972,
        "lng": 55.2744,
        "difficulty": "easy",
        "funFact": "It is so tall that you can watch the sunset from the base, then take the elevator to the top and watch it again.",
        "tags": [
            "landmark",
            "asia"
        ]
    },
    {
        "id": "acropolis",
        "name": "The Acropolis",
        "country": "GR",
        "lat": 37.9715,
        "lng": 23.7257,
        "difficulty": "easy",
        "funFact": "The Parthenon was actually used as a gunpowder magazine during the 17th century.",
        "tags": [
            "landmark",
            "europe"
        ]
    }
]